{"Тверская": {"person": [{"address": "г Москва, ул Тверская, д 17", "coordinates": "55.7638212126963, 37.606548013099996", "color": "blue"}, {"address": "г Москва, ул Тверская, д 17", "coordinates": "55.763391455296315, 37.607086529", "color": "blue"}, {"address": "г Москва, ул Тверская, д 17", "coordinates": "55.763391455296315, 37.607086529", "color": "blue"}, {"address": "г Москва, ул Тверская, д 17", "coordinates": "55.763391455296315, 37.607086529", "color": "blue"}, {"address": "г Москва, ул Тверская, д 17", "coordinates": "55.763391455296315, 37.607086529", "color": "red"}, {"address": "г Москва, ул Тверская, д 12 стр 1", "coordinates": "55.763287811096305, 37.6072183829", "color": "blue"}, {"address": "г Москва, ул Тверская, д 12 стр 1", "coordinates": "55.76317956469629, 37.607354736299996", "color": "blue"}, {"address": "г Москва, ул Тверская, д 10", "coordinates": "55.76267264999631, 37.6079794234", "color": "blue"}, {"address": "г Москва, ул Тверская, д 10", "coordinates": "55.76267264999631, 37.6079794234", "color": "blue"}, {"address": "г Москва, ул Тверская, д 10", "coordinates": "55.762546635196315, 37.6081340032", "color": "blue"}, {"address": "г Москва, ул Тверская, д 10 стр 1", "coordinates": "55.762469644096285, 37.608232477799994", "color": "red"}, {"address": "г Москва, ул Тверская, д 8", "coordinates": "55.76236395609631, 37.60837076119999", "color": "blue"}, {"address": "г Москва, ул Тверская, д 13/1", "coordinates": "55.761815829796305, 37.60909045500001", "color": "blue"}, {"address": "г Москва, ул Тверская, д 11", "coordinates": "55.76056116199629, 37.6103665306", "color": "blue"}, {"address": "г Москва, ул Тверская, д 11", "coordinates": "55.76056116199629, 37.6103665306", "color": "blue"}, {"address": "г Москва, ул Тверская, д 11", "coordinates": "55.760466363396304, 37.61045820089999", "color": "blue"}, {"address": "г Москва, ул Тверская, д 11", "coordinates": "55.760466363396304, 37.61045820089999", "color": "blue"}, {"address": "г Москва, ул Тверская, д 11", "coordinates": "55.760466363396304, 37.61045820089999", "color": "blue"}, {"address": "г Москва, ул Тверская, д 9", "coordinates": "55.76006224269629, 37.610849059", "color": "blue"}, {"address": "г Москва, ул Тверская, д 6 стр 7", "coordinates": "55.75959737429629, 37.611299692399996", "color": "blue"}, {"address": "г Москва, ул Тверская, д 6 стр 7", "coordinates": "55.75959737429629, 37.611299692399996", "color": "blue"}, {"address": "г Москва, ул Тверская, д 4 соор 2", "coordinates": "55.758862021796304, 37.6120424877", "color": "red"}, {"address": "г Москва, ул Тверская, д 4 соор 2", "coordinates": "55.758732598296305, 37.612198515", "color": "red"}, {"address": "г Москва, ул Тверская, д 4 соор 2", "coordinates": "55.758732598296305, 37.612198515", "color": "red"}, {"address": "г Москва, ул Тверская, д 5/6", "coordinates": "55.75813745889631, 37.6128779842", "color": "blue"}, {"address": "г Москва, ул Тверская, д 5/6", "coordinates": "55.75789460919629, 37.6131620803", "color": "red"}, {"address": "г Москва, ул Тверская, д 1", "coordinates": "55.7574560510963, 37.6138936144", "color": "blue"}, {"address": "г Москва, ул Тверская, д 1", "coordinates": "55.75726434469632, 37.6142502656", "color": "red"}, {"address": "г Москва, ул Тверская, д 2", "coordinates": "55.756968225896316, 37.615424257399994", "color": "blue"}, {"address": "г Москва, ул Тверская, д 2", "coordinates": "55.756968225896316, 37.615424257399994", "color": "red"}, {"address": "г Москва, ул Тверская, д 2", "coordinates": "55.756930819996285, 37.61565695", "color": "red"}, {"address": "г Москва, ул Тверская, д 2", "coordinates": "55.756930819996285, 37.61565695", "color": "red"}, {"address": "г Москва, ул Тверская, д 2", "coordinates": "55.756930819996285, 37.61565695", "color": "white"}, {"address": "г Москва, ул Тверская, д 2", "coordinates": "55.756930819996285, 37.61565695", "color": "red"}, {"address": "г Москва, ул Тверская, д 2", "coordinates": "55.756930819996285, 37.61565695", "color": "blue"}, {"address": "г Москва, ул Тверская, д 2", "coordinates": "55.756930819996285, 37.61565695", "color": "red"}, {"address": "г Москва, ул Охотный Ряд, д 2", "coordinates": "55.7567669499963, 37.61599452", "color": "red"}, {"address": "г Москва, ул Охотный Ряд, д 2", "coordinates": "55.7567669499963, 37.61599452", "color": "red"}, {"address": "г Москва, ул Охотный Ряд, д 2", "coordinates": "55.7567669499963, 37.61599452", "color": "red"}, {"address": "г Москва, ул Охотный Ряд, д 2", "coordinates": "55.7567669499963, 37.61599452", "color": "red"}, {"address": "г Москва, ул Охотный Ряд, д 2", "coordinates": "55.7567669499963, 37.61599452", "color": "white"}, {"address": "г Москва, ул Охотный Ряд, д 2", "coordinates": "55.7567669499963, 37.61599452", "color": "red"}, {"address": "г Москва, ул Охотный Ряд, д 2", "coordinates": "55.7567669499963, 37.61599452", "color": "blue"}, {"address": "г Москва, ул Охотный Ряд, д 2", "coordinates": "55.7567669499963, 37.61599452", "color": "red"}], "cafe": [{"address": "Тверская улица, 18k1, Москва, 127006", "coordinates": [55.7663808, 37.6036411], "name": "Грабли"}, {"address": "Тверская улица, 6s1, Москва, 125009", "coordinates": [55.7603649, 37.6112873], "name": "Чайная высота"}, {"address": "Тверская улица, 12s1, Москва, 125009", "coordinates": [55.7632797, 37.6079595], "name": "Циферблат"}, {"address": "Тверская улица, 14, Москва, 125009", "coordinates": [55.76427, 37.6057521], "name": "Шоколадница"}, {"address": "Тверская улица, 10, Москва, 125009", "coordinates": [55.7625751, 37.6077747], "name": "Prime"}, {"address": "Тверская улица, 19A, Москва, 125009", "coordinates": [55.7659538, 37.602658], "name": "Prime"}, {"address": "Тверская улица, 19A, Москва, 125009", "coordinates": [55.7659019, 37.6027536], "name": "Шоколадница"}, {"address": "Тверская улица, 9s6A, Москва, 125009", "coordinates": [55.7634164, 37.6067899], "name": "Сыто Piano"}, {"address": "Тверская улица, 25/12, Москва, 125009", "coordinates": [55.7677079, 37.5994621], "name": "Surf Coffee"}, {"address": "Тверская улица, 10s1, Москва, 125009", "coordinates": [55.7628279, 37.6075208], "name": "Peko Domo"}, {"address": "Тверская улица, 12s3, Москва, 125009", "coordinates": [55.7640701, 37.6075554], "name": "Пиццаменто"}, {"address": "Тверская улица, 8, Москва, 125009", "coordinates": [55.7620394, 37.6084703], "name": "Country Home"}, {"address": "Тверская улица, 18k1, Москва, 127006", "coordinates": [55.7663808, 37.6036411], "name": "Грабли"}, {"address": "Тверская улица, 6s1, Москва, 125009", "coordinates": [55.7603649, 37.6112873], "name": "Чайная высота"}, {"address": "Тверская улица, 12s1, Москва, 125009", "coordinates": [55.7632797, 37.6079595], "name": "Циферблат"}, {"address": "Тверская улица, 14, Москва, 125009", "coordinates": [55.76427, 37.6057521], "name": "Шоколадница"}, {"address": "Тверская улица, 10, Москва, 125009", "coordinates": [55.7625751, 37.6077747], "name": "Prime"}, {"address": "Тверская улица, 19A, Москва, 125009", "coordinates": [55.7659538, 37.602658], "name": "Prime"}, {"address": "Тверская улица, 19A, Москва, 125009", "coordinates": [55.7659019, 37.6027536], "name": "Шоколадница"}, {"address": "Тверская улица, 9s6A, Москва, 125009", "coordinates": [55.7634164, 37.6067899], "name": "Сыто Piano"}, {"address": "Тверская улица, 25/12, Москва, 125009", "coordinates": [55.7677079, 37.5994621], "name": "Surf Coffee"}, {"address": "Тверская улица, 10s1, Москва, 125009", "coordinates": [55.7628279, 37.6075208], "name": "Peko Domo"}, {"address": "Тверская улица, 12s3, Москва, 125009", "coordinates": [55.7640701, 37.6075554], "name": "Пиццаменто"}, {"address": "Тверская улица, 8, Москва, 125009", "coordinates": [55.7620394, 37.6084703], "name": "Country Home"}, {"address": "Тверская улица, 28k1, Москва, 125009", "coordinates": [55.7683507, 37.5982189], "name": "Cinnabon"}, {"address": "Тверская улица, 18k1, Москва, 127006", "coordinates": [55.7663808, 37.6036411], "name": "Грабли"}, {"address": "Тверская улица, 12s1, Москва, 125009", "coordinates": [55.7632797, 37.6079595], "name": "Циферблат"}, {"address": "Тверская улица, 14, Москва, 125009", "coordinates": [55.76427, 37.6057521], "name": "Шоколадница"}, {"address": "Тверская улица, 10, Москва, 125009", "coordinates": [55.7625751, 37.6077747], "name": "Prime"}, {"address": "Тверская улица, 19A, Москва, 125009", "coordinates": [55.7659538, 37.602658], "name": "Prime"}, {"address": "Тверская улица, 19A, Москва, 125009", "coordinates": [55.7659019, 37.6027536], "name": "Шоколадница"}, {"address": "Тверская улица, 9s6A, Москва, 125009", "coordinates": [55.7634164, 37.6067899], "name": "Сыто Piano"}, {"address": "Тверская улица, 31/4, Москва, 125009", "coordinates": [55.7690251, 37.5969583], "name": "Bright"}, {"address": "Тверская улица, 25/12, Москва, 125009", "coordinates": [55.7677079, 37.5994621], "name": "Surf Coffee"}, {"address": "Тверская улица, 10s1, Москва, 125009", "coordinates": [55.7628279, 37.6075208], "name": "Peko Domo"}, {"address": "Тверская улица, 12s3, Москва, 125009", "coordinates": [55.7640701, 37.6075554], "name": "Пиццаменто"}, {"address": "Тверская улица, 8, Москва, 125009", "coordinates": [55.7620394, 37.6084703], "name": "Country Home"}, {"address": "Тверская улица, 28k1, Москва, 125009", "coordinates": [55.7683507, 37.5982189], "name": "Cinnabon"}, {"address": "Тверская улица, 18k1, Москва, 127006", "coordinates": [55.7663808, 37.6036411], "name": "Грабли"}, {"address": "Тверская улица, 12s1, Москва, 125009", "coordinates": [55.7632797, 37.6079595], "name": "Циферблат"}, {"address": "Тверская улица, 14, Москва, 125009", "coordinates": [55.76427, 37.6057521], "name": "Шоколадница"}, {"address": "Тверская улица, 10, Москва, 125009", "coordinates": [55.7625751, 37.6077747], "name": "Prime"}, {"address": "Тверская улица, 19A, Москва, 125009", "coordinates": [55.7659538, 37.602658], "name": "Prime"}, {"address": "Тверская улица, 19A, Москва, 125009", "coordinates": [55.7659019, 37.6027536], "name": "Шоколадница"}, {"address": "Тверская улица, 9s6A, Москва, 125009", "coordinates": [55.7634164, 37.6067899], "name": "Сыто Piano"}, {"address": "Тверская улица, 31/4, Москва, 125009", "coordinates": [55.7690251, 37.5969583], "name": "Bright"}, {"address": "Тверская улица, 25/12, Москва, 125009", "coordinates": [55.7677079, 37.5994621], "name": "Surf Coffee"}, {"address": "Тверская улица, 10s1, Москва, 125009", "coordinates": [55.7628279, 37.6075208], "name": "Peko Domo"}, {"address": "Тверская улица, 12s3, Москва, 125009", "coordinates": [55.7640701, 37.6075554], "name": "Пиццаменто"}, {"address": "Тверская улица, 8, Москва, 125009", "coordinates": [55.7620394, 37.6084703], "name": "Country Home"}, {"address": "Тверская улица, 28k1, Москва, 125009", "coordinates": [55.7683507, 37.5982189], "name": "Cinnabon"}]}}